# Major Cities for Map Display
# Format: city name, latitude, longitude, zoom level

cities:
  # United States - East Coast
  - name: "New York City, USA"
    lat: 40.7128
    lon: -74.0060
    zoom: 12

  - name: "Boston, USA"
    lat: 42.3601
    lon: -71.0589
    zoom: 12

  # United States - West Coast
  - name: "Seattle, USA"
    lat: 47.6062
    lon: -122.3321
    zoom: 12

  - name: "San Francisco, USA"
    lat: 37.7749
    lon: -122.4194
    zoom: 12

  - name: "Los Angeles, USA"
    lat: 34.0522
    lon: -118.2437
    zoom: 11

  # Canada
  - name: "Vancouver, Canada"
    lat: 49.2827
    lon: -123.1207
    zoom: 12

  - name: "Toronto, Canada"
    lat: 43.6532
    lon: -79.3832
    zoom: 12

  - name: "Montreal, Canada"
    lat: 45.5017
    lon: -73.5673
    zoom: 12

  # Australia
  - name: "Sydney, Australia"
    lat: -33.8688
    lon: 151.2093
    zoom: 12

  - name: "Melbourne, Australia"
    lat: -37.8136
    lon: 144.9631
    zoom: 12

  - name: "Brisbane, Australia"
    lat: -27.4698
    lon: 153.0251
    zoom: 12

  - name: "Perth, Australia"
    lat: -31.9505
    lon: 115.8605
    zoom: 12

  # New Zealand
  - name: "Auckland, New Zealand"
    lat: -36.8485
    lon: 174.7633
    zoom: 12

  - name: "Wellington, New Zealand"
    lat: -41.2865
    lon: 174.7762
    zoom: 12

  # Japan
  - name: "Tokyo, Japan"
    lat: 35.6762
    lon: 139.6503
    zoom: 12

  - name: "Osaka, Japan"
    lat: 34.6937
    lon: 135.5023
    zoom: 12

  - name: "Sapporo, Japan"
    lat: 43.0642
    lon: 141.3469
    zoom: 12

  - name: "Kyoto, Japan"
    lat: 35.0116
    lon: 135.7681
    zoom: 12

  - name: "Yokohama, Japan"
    lat: 35.4437
    lon: 139.6380
    zoom: 12

  # South Korea
  - name: "Seoul, South Korea"
    lat: 37.5665
    lon: 126.9780
    zoom: 12

  - name: "Busan, South Korea"
    lat: 35.1796
    lon: 129.0756
    zoom: 12

  # Taiwan
  - name: "Taipei, Taiwan"
    lat: 25.0330
    lon: 121.5654
    zoom: 12

  - name: "Kaohsiung, Taiwan"
    lat: 22.6273
    lon: 120.3014
    zoom: 12

  # Vietnam
  - name: "Hanoi, Vietnam"
    lat: 21.0285
    lon: 105.8542
    zoom: 12

  - name: "Ho Chi Minh City, Vietnam"
    lat: 10.8231
    lon: 106.6297
    zoom: 12

  # Thailand
  - name: "Bangkok, Thailand"
    lat: 13.7563
    lon: 100.5018
    zoom: 12

  # Singapore
  - name: "Singapore"
    lat: 1.3521
    lon: 103.8198
    zoom: 12

  # Hong Kong
  - name: "Hong Kong"
    lat: 22.3193
    lon: 114.1694
    zoom: 12

  # China
  - name: "Shanghai, China"
    lat: 31.2304
    lon: 121.4737
    zoom: 12

  - name: "Beijing, China"
    lat: 39.9042
    lon: 116.4074
    zoom: 12

  - name: "Shenzhen, China"
    lat: 22.5431
    lon: 114.0579
    zoom: 12

  # Philippines
  - name: "Manila, Philippines"
    lat: 14.5995
    lon: 120.9842
    zoom: 12

  # Malaysia
  - name: "Kuala Lumpur, Malaysia"
    lat: 3.1390
    lon: 101.6869
    zoom: 12

  # Indonesia
  - name: "Jakarta, Indonesia"
    lat: -6.2088
    lon: 106.8456
    zoom: 12

  # India (bonus - major Asian cities)
  - name: "Mumbai, India"
    lat: 19.0760
    lon: 72.8777
    zoom: 12

  - name: "Delhi, India"
    lat: 28.6139
    lon: 77.2090
    zoom: 12

  # Additional US Cities
  - name: "Chicago, USA"
    lat: 41.8781
    lon: -87.6298
    zoom: 11

  - name: "Portland, USA"
    lat: 45.5152
    lon: -122.6784
    zoom: 12

  - name: "San Diego, USA"
    lat: 32.7157
    lon: -117.1611
    zoom: 12

  - name: "Austin, USA"
    lat: 30.2672
    lon: -97.7431
    zoom: 12

  - name: "Denver, USA"
    lat: 39.7392
    lon: -104.9903
    zoom: 12

  - name: "Miami, USA"
    lat: 25.7617
    lon: -80.1918
    zoom: 12

  - name: "Washington DC, USA"
    lat: 38.9072
    lon: -77.0369
    zoom: 12
